[
    {
        "facilityId": 64,
        "hospfLib": "HOSPF064",
        "orderfLib": "ORDERF064",
        "division": 2,
        "state": "TX",
        "hostname": "S00064",
        "location": "Abilene, TX",
        "name": "Abilene Regional Medical Center",
        "connectionString": "jdbc:as400://S00064/ORDERF064;naming=sql;errors=full",
        "city": "Abilene"
    },
    {
        "facilityId": 158,
        "hospfLib": "HOSPF158",
        "orderfLib": "ORDERF158",
        "division": 2,
        "state": "TX",
        "hostname": "S62000",
        "location": "Alpine, TX",
        "name": "Big Bend Regional Medical Center",
        "connectionString": "jdbc:as400://S62000/ORDERF158;naming=sql;errors=full",
        "city": "Alpine"
    },
    {
        "facilityId": 125,
        "hospfLib": "HOSPF125",
        "orderfLib": "ORDERF125",
        "division": 3,
        "state": "IL",
        "hostname": "S00125",
        "location": "Anna, IL",
        "name": "Union County Hospital",
        "connectionString": "jdbc:as400://S00125/ORDERF125;naming=sql;errors=full",
        "city": "Anna"
    },
    {
        "facilityId": 55,
        "hospfLib": "HOSPF055",
        "orderfLib": "ORDERF055",
        "division": 6,
        "state": "GA",
        "hostname": "S00055",
        "location": "Augusta, GA",
        "name": "Trinity Hospital of Augusta - 1536",
        "connectionString": "jdbc:as400://S00055/ORDERF055;naming=sql;errors=full",
        "city": "Augusta"
    },
    {
        "facilityId": 115,
        "hospfLib": "HOSPF115",
        "orderfLib": "ORDERF115",
        "division": 4,
        "state": "CA",
        "hostname": "S60020",
        "location": "Barstow, CA",
        "name": "Barstow Community Hospital",
        "connectionString": "jdbc:as400://S60020/ORDERF115;naming=sql;errors=full",
        "city": "Barstow"
    },
    {
        "facilityId": 144,
        "hospfLib": "HOSPF144",
        "orderfLib": "ORDERF144",
        "division": 6,
        "state": "SC",
        "hostname": "S00144",
        "location": "Bennettsville, SC",
        "name": "Marlboro Park Hospital",
        "connectionString": "jdbc:as400://S00144/ORDERF144;naming=sql;errors=full",
        "city": "Bennettsville"
    },
    {
        "facilityId": 45,
        "hospfLib": "HOSPF045",
        "orderfLib": "ORDERF045",
        "division": 2,
        "state": "AR",
        "hostname": "S00044",
        "location": "Bentonville, AR",
        "name": "Northwest Medical Ctr - Bentonville",
        "connectionString": "jdbc:as400://S00044/ORDERF045;naming=sql;errors=full",
        "city": "Bentonville"
    },
    {
        "facilityId": 155,
        "hospfLib": "HOSPF155",
        "orderfLib": "ORDERF155",
        "division": 5,
        "state": "PA",
        "hostname": "S00155",
        "location": "Berwick, PA",
        "name": "Berwick Hospital Center",
        "connectionString": "jdbc:as400://S00155/ORDERF155;naming=sql;errors=full",
        "city": "Berwick"
    },
    {
        "facilityId": 135,
        "hospfLib": "HOSPF135",
        "orderfLib": "ORDERF135",
        "division": 2,
        "state": "TX",
        "hostname": "S00135",
        "location": "Big Spring, TX",
        "name": "Scenic Mountain Medical Center",
        "connectionString": "jdbc:as400://S00135/ORDERF135;naming=sql;errors=full",
        "city": "Big Spring"
    },
    {
        "facilityId": 38,
        "hospfLib": "HOSPF038",
        "orderfLib": "ORDERF038",
        "division": 1,
        "state": "AL",
        "hostname": "S60002",
        "location": "Birmingham, AL",
        "name": "Trinity Medical Center - Birmingham",
        "connectionString": "jdbc:as400://S60002/ORDERF038;naming=sql;errors=full",
        "city": "Birmingham"
    },
    {
        "facilityId": 102,
        "hospfLib": "HOSPF102",
        "orderfLib": "ORDERF102",
        "division": 6,
        "state": "GA",
        "hostname": "S60003",
        "location": "Blue Ridge, GA",
        "name": "Fannin Regional Hospital",
        "connectionString": "jdbc:as400://S60003/ORDERF102;naming=sql;errors=full",
        "city": "Blue Ridge"
    },
    {
        "facilityId": 74,
        "hospfLib": "HOSPF074",
        "orderfLib": "ORDERF074",
        "division": 3,
        "state": "WV",
        "hostname": "S00074",
        "location": "Bluefield, WV",
        "name": "Bluefield Regional Medical Center",
        "connectionString": "jdbc:as400://S00074/ORDERF074;naming=sql;errors=full",
        "city": "Bluefield"
    },
    {
        "facilityId": 51,
        "hospfLib": "HOSPF051",
        "orderfLib": "ORDERF051",
        "division": 5,
        "state": "IN",
        "hostname": "S60002",
        "location": "Bluffton, IN",
        "name": "Bluffton Regional Medical Center",
        "connectionString": "jdbc:as400://S60002/ORDERF051;naming=sql;errors=full",
        "city": "Bluffton"
    },
    {
        "facilityId": 185,
        "hospfLib": "HOSPF185",
        "orderfLib": "ORDERF185",
        "division": 3,
        "state": "TN",
        "hostname": "S00185",
        "location": "Brownsville, TN",
        "name": "Haywood Park Community Hospital",
        "connectionString": "jdbc:as400://S00185/ORDERF185;naming=sql;errors=full",
        "city": "Brownsville"
    },
    {
        "facilityId": 67,
        "hospfLib": "HOSPF067",
        "orderfLib": "ORDERF067",
        "division": 2,
        "state": "TX",
        "hostname": "S00067",
        "location": "Brownwood, TX",
        "name": "Brownwood Regional Medical Center",
        "connectionString": "jdbc:as400://S00067/ORDERF067;naming=sql;errors=full",
        "city": "Brownwood"
    },
    {
        "facilityId": 163,
        "hospfLib": "HOSPF163",
        "orderfLib": "ORDERF163",
        "division": 4,
        "state": "AZ",
        "hostname": "S00163",
        "location": "Bullhead City, AZ",
        "name": "Western Arizona Regional Medical Cn",
        "connectionString": "jdbc:as400://S00163/ORDERF163;naming=sql;errors=full",
        "city": "Bullhead City"
    },
    {
        "facilityId": 26,
        "hospfLib": "HOSPF026",
        "orderfLib": "ORDERF026",
        "division": 4,
        "state": "NM",
        "hostname": "S00026",
        "location": "Carlsbad, NM",
        "name": "Carlsbad Medical Center",
        "connectionString": "jdbc:as400://S00026/ORDERF026;naming=sql;errors=full",
        "city": "Carlsbad"
    },
    {
        "facilityId": 18,
        "hospfLib": "HOSPF018",
        "orderfLib": "ORDERF018",
        "division": 2,
        "state": "TX",
        "hostname": "S00018",
        "location": "Cedar Park, TX",
        "name": "Cedar Park Regional Medical Center",
        "connectionString": "jdbc:as400://S00018/ORDERF018;naming=sql;errors=full",
        "city": "Cedar Park"
    },
    {
        "facilityId": 197,
        "hospfLib": "HOSPF197",
        "orderfLib": "ORDERF197",
        "division": 1,
        "state": "AL",
        "hostname": "S00198",
        "location": "Centre, AL",
        "name": "Cherokee Hospital",
        "connectionString": "jdbc:as400://S00198/ORDERF197;naming=sql;errors=full",
        "city": "Centre"
    },
    {
        "facilityId": 146,
        "hospfLib": "HOSPF146",
        "orderfLib": "ORDERF146",
        "division": 6,
        "state": "SC",
        "hostname": "S00146",
        "location": "Cheraw, SC",
        "name": "Chesterfield General Hospital",
        "connectionString": "jdbc:as400://S00146/ORDERF146;naming=sql;errors=full",
        "city": "Cheraw"
    },
    {
        "facilityId": 191,
        "hospfLib": "HOSPF191",
        "orderfLib": "ORDERF191",
        "division": 5,
        "state": "PA",
        "hostname": "S00191",
        "location": "Chestnut Hill, PA",
        "name": "Chestnut Hill",
        "connectionString": "jdbc:as400://S00191/ORDERF191;naming=sql;errors=full",
        "city": "Chestnut Hill"
    },
    {
        "facilityId": 28,
        "hospfLib": "HOSPF028",
        "orderfLib": "ORDERF028",
        "division": 3,
        "state": "TN",
        "hostname": "S00028",
        "location": "Clarksville, TN",
        "name": "Gateway Medical Center/Clarksville",
        "connectionString": "jdbc:as400://S00028/ORDERF028;naming=sql;errors=full",
        "city": "Clarksville"
    },
    {
        "facilityId": 127,
        "hospfLib": "HOSPF127",
        "orderfLib": "ORDERF127",
        "division": 3,
        "state": "TN",
        "hostname": "S00193",
        "location": "Cleveland, TN",
        "name": "Skyridge Medical Ctr Wstside Campus",
        "connectionString": "jdbc:as400://S00193/ORDERF127;naming=sql;errors=full",
        "city": "Cleveland"
    },
    {
        "facilityId": 147,
        "hospfLib": "HOSPF147",
        "orderfLib": "ORDERF147",
        "division": 2,
        "state": "TX",
        "hostname": "S60001",
        "location": "Cleveland, TX",
        "name": "Cleveland Regional Medical Center",
        "connectionString": "jdbc:as400://S60001/ORDERF147;naming=sql;errors=full",
        "city": "Cleveland"
    },
    {
        "facilityId": 193,
        "hospfLib": "HOSPF193",
        "orderfLib": "ORDERF193",
        "division": 3,
        "state": "TN",
        "hostname": "S00193",
        "location": "Cleveland, TN",
        "name": "SkyRidge Medical Center",
        "connectionString": "jdbc:as400://S00193/ORDERF193;naming=sql;errors=full",
        "city": "Cleveland"
    },
    {
        "facilityId": 167,
        "hospfLib": "HOSPF167",
        "orderfLib": "ORDERF167",
        "division": 5,
        "state": "PA",
        "hostname": "S00167",
        "location": "Coatesville, PA",
        "name": "Brandywine Hospital",
        "connectionString": "jdbc:as400://S00167/ORDERF167;naming=sql;errors=full",
        "city": "Coatesville"
    },
    {
        "facilityId": 47,
        "hospfLib": "HOSPF047",
        "orderfLib": "ORDERF047",
        "division": 2,
        "state": "TX",
        "hostname": "S00047",
        "location": "College Station, TX",
        "name": "College Station Medical Center",
        "connectionString": "jdbc:as400://S00047/ORDERF047;naming=sql;errors=full",
        "city": "College Station"
    },
    {
        "facilityId": 22,
        "hospfLib": "HOSPF022",
        "orderfLib": "ORDERF022",
        "division": 2,
        "state": "TX",
        "hostname": "S00022",
        "location": "Corsicana, TX",
        "name": "Navarro Regional Hospital",
        "connectionString": "jdbc:as400://S00022/ORDERF022;naming=sql;errors=full",
        "city": "Corsicana"
    },
    {
        "facilityId": 141,
        "hospfLib": "HOSPF141",
        "orderfLib": "ORDERF141",
        "division": 6,
        "state": "FL",
        "hostname": "S00141",
        "location": "Crestview, FL",
        "name": "North Okaloosa Medical Center",
        "connectionString": "jdbc:as400://S00141/ORDERF141;naming=sql;errors=full",
        "city": "Crestview"
    },
    {
        "facilityId": 142,
        "hospfLib": "HOSPF142",
        "orderfLib": "ORDERF142",
        "division": 4,
        "state": "NM",
        "hostname": "S00142",
        "location": "Deming, NM",
        "name": "Mimbres Memorial Hospital",
        "connectionString": "jdbc:as400://S00142/ORDERF142;naming=sql;errors=full",
        "city": "Deming"
    },
    {
        "facilityId": 40,
        "hospfLib": "HOSPF040",
        "orderfLib": "ORDERF040",
        "division": 1,
        "state": "AL",
        "hostname": "S00040",
        "location": "Dothan, AL",
        "name": "Flowers Hospital",
        "connectionString": "jdbc:as400://S00040/ORDERF040;naming=sql;errors=full",
        "city": "Dothan"
    },
    {
        "facilityId": 180,
        "hospfLib": "HOSPF180",
        "orderfLib": "ORDERF180",
        "division": 3,
        "state": "TN",
        "hostname": "S00180",
        "location": "Dyersburg, TN",
        "name": "Dyersburg Regional Medical Center",
        "connectionString": "jdbc:as400://S00180/ORDERF180;naming=sql;errors=full",
        "city": "Dyersburg"
    },
    {
        "facilityId": 169,
        "hospfLib": "HOSPF169",
        "orderfLib": "ORDERF169",
        "division": 5,
        "state": "PA",
        "hostname": "S00169",
        "location": "Easton, PA",
        "name": "Easton Hospital",
        "connectionString": "jdbc:as400://S00169/ORDERF169;naming=sql;errors=full",
        "city": "Easton"
    },
    {
        "facilityId": 61,
        "hospfLib": "HOSPF061",
        "orderfLib": "ORDERF061",
        "division": 2,
        "state": "AR",
        "hostname": "S00061",
        "location": "El Dorado, AR",
        "name": "Medical Center of South Arkansas",
        "connectionString": "jdbc:as400://S00061/ORDERF061;naming=sql;errors=full",
        "city": "El Dorado"
    },
    {
        "facilityId": 157,
        "hospfLib": "HOSPF157",
        "orderfLib": "ORDERF157",
        "division": 1,
        "state": "VA",
        "hostname": "S00157",
        "location": "Emporia, VA",
        "name": "Southern Virginia Regional Medical",
        "connectionString": "jdbc:as400://S00157/ORDERF157;naming=sql;errors=full",
        "city": "Emporia"
    },
    {
        "facilityId": 35,
        "hospfLib": "HOSPF035",
        "orderfLib": "ORDERF035",
        "division": 1,
        "state": "AL",
        "hostname": "S00035",
        "location": "Enterprise, AL",
        "name": "Medical Center Enterprise",
        "connectionString": "jdbc:as400://S00035/ORDERF035;naming=sql;errors=full",
        "city": "Enterprise"
    },
    {
        "facilityId": 159,
        "hospfLib": "HOSPF159",
        "orderfLib": "ORDERF159",
        "division": 4,
        "state": "WY",
        "hostname": "S00159",
        "location": "Evanston, WY",
        "name": "Evanston Regional Hospital",
        "connectionString": "jdbc:as400://S00159/ORDERF159;naming=sql;errors=full",
        "city": "Evanston"
    },
    {
        "facilityId": 153,
        "hospfLib": "HOSPF153",
        "orderfLib": "ORDERF153",
        "division": 4,
        "state": "CA",
        "hostname": "S00153",
        "location": "Fallbrook, CA",
        "name": "Fallbrook Hospital",
        "connectionString": "jdbc:as400://S00153/ORDERF153;naming=sql;errors=full",
        "city": "Fallbrook"
    },
    {
        "facilityId": 25,
        "hospfLib": "HOSPF025",
        "orderfLib": "ORDERF025",
        "division": 6,
        "state": "SC",
        "hostname": "S00025",
        "location": "Florence, SC",
        "name": "Carolinas Hospital System",
        "connectionString": "jdbc:as400://S00025/ORDERF025;naming=sql;errors=full",
        "city": "Florence"
    },
    {
        "facilityId": 164,
        "hospfLib": "HOSPF164",
        "orderfLib": "ORDERF164",
        "division": 1,
        "state": "AL",
        "hostname": "S00164",
        "location": "Foley, AL",
        "name": "South Baldwin Regional Medical Cent",
        "connectionString": "jdbc:as400://S00164/ORDERF164;naming=sql;errors=full",
        "city": "Foley"
    },
    {
        "facilityId": 196,
        "hospfLib": "HOSPF196",
        "orderfLib": "ORDERF196",
        "division": 2,
        "state": "AR",
        "hostname": "S00196",
        "location": "Forrest City, AR",
        "name": "Forrest City Hospital Inc",
        "connectionString": "jdbc:as400://S00196/ORDERF196;naming=sql;errors=full",
        "city": "Forrest City"
    },
    {
        "facilityId": 53,
        "hospfLib": "HOSPF053",
        "orderfLib": "ORDERF053",
        "division": 5,
        "state": "IN",
        "hostname": "S60002",
        "location": "Fort Wayne, IN",
        "name": "Dupont Hospital",
        "connectionString": "jdbc:as400://S60002/ORDERF053;naming=sql;errors=full",
        "city": "Fort Wayne"
    },
    {
        "facilityId": 54,
        "hospfLib": "HOSPF054",
        "orderfLib": "ORDERF054",
        "division": 5,
        "state": "IN",
        "hostname": "S60002",
        "location": "Fort Wayne, IN",
        "name": "St Joseph Hospital",
        "connectionString": "jdbc:as400://S60002/ORDERF054;naming=sql;errors=full",
        "city": "Fort Wayne"
    },
    {
        "facilityId": 56,
        "hospfLib": "HOSPF056",
        "orderfLib": "ORDERF056",
        "division": 5,
        "state": "IN",
        "hostname": "S60002",
        "location": "Fort Wayne, IN",
        "name": "Lutheran Hospital",
        "connectionString": "jdbc:as400://S60002/ORDERF056;naming=sql;errors=full",
        "city": "Fort Wayne"
    },
    {
        "facilityId": 162,
        "hospfLib": "HOSPF162",
        "orderfLib": "ORDERF162",
        "division": 1,
        "state": "VA",
        "hostname": "S00162",
        "location": "Franklin, VA",
        "name": "Southampton Memorial Hospital",
        "connectionString": "jdbc:as400://S00162/ORDERF162;naming=sql;errors=full",
        "city": "Franklin"
    },
    {
        "facilityId": 805,
        "hospfLib": "HOSPF805",
        "orderfLib": "ORDERF805",
        "division": 0,
        "state": "TN",
        "hostname": "S60000",
        "location": "Franklin, TN",
        "name": "Physician Practice Support (PPSI)",
        "connectionString": "jdbc:as400://S60000/ORDERF805;naming=sql;errors=full",
        "city": "Franklin"
    },
    {
        "facilityId": 809,
        "hospfLib": "HOSPF809",
        "orderfLib": "ORDERF809",
        "division": 0,
        "state": "TN",
        "hostname": "S60000",
        "location": "Franklin, TN",
        "name": "Eligibility Screening Services",
        "connectionString": "jdbc:as400://S60000/ORDERF809;naming=sql;errors=full",
        "city": "Franklin"
    },
    {
        "facilityId": 198,
        "hospfLib": "HOSPF198",
        "orderfLib": "ORDERF198",
        "division": 1,
        "state": "AL",
        "hostname": "S00198",
        "location": "Ft. Payne, AL",
        "name": "Dekalb Hospital",
        "connectionString": "jdbc:as400://S00198/ORDERF198;naming=sql;errors=full",
        "city": "Ft. Payne"
    },
    {
        "facilityId": 112,
        "hospfLib": "HOSPF112",
        "orderfLib": "ORDERF112",
        "division": 3,
        "state": "KY",
        "hostname": "S60017",
        "location": "Fulton, KY",
        "name": "Parkway Regional Hospital",
        "connectionString": "jdbc:as400://S60017/ORDERF112;naming=sql;errors=full",
        "city": "Fulton"
    },
    {
        "facilityId": 36,
        "hospfLib": "HOSPF036",
        "orderfLib": "ORDERF036",
        "division": 1,
        "state": "AL",
        "hostname": "S00036",
        "location": "Gadsden, AL",
        "name": "Gadsden Regional Medical Center",
        "connectionString": "jdbc:as400://S00036/ORDERF036;naming=sql;errors=full",
        "city": "Gadsden"
    },
    {
        "facilityId": 190,
        "hospfLib": "HOSPF190",
        "orderfLib": "ORDERF190",
        "division": 3,
        "state": "IL",
        "hostname": "S00190",
        "location": "Galesburg, IL",
        "name": "Galesburg Cottage Hospital",
        "connectionString": "jdbc:as400://S00190/ORDERF190;naming=sql;errors=full",
        "city": "Galesburg"
    },
    {
        "facilityId": 149,
        "hospfLib": "HOSPF149",
        "orderfLib": "ORDERF149",
        "division": 2,
        "state": "TX",
        "hostname": "S00149",
        "location": "Granbury, TX",
        "name": "Lake Granbury Medical Center",
        "connectionString": "jdbc:as400://S00149/ORDERF149;naming=sql;errors=full",
        "city": "Granbury"
    },
    {
        "facilityId": 172,
        "hospfLib": "HOSPF172",
        "orderfLib": "ORDERF172",
        "division": 3,
        "state": "IL",
        "hostname": "S00172",
        "location": "Granite City, IL",
        "name": "Gateway Regional Medical Center",
        "connectionString": "jdbc:as400://S00172/ORDERF172;naming=sql;errors=full",
        "city": "Granite City"
    },
    {
        "facilityId": 122,
        "hospfLib": "HOSPF122",
        "orderfLib": "ORDERF122",
        "division": 1,
        "state": "AL",
        "hostname": "S00122",
        "location": "Greenville, AL",
        "name": "L.V. Stabler Memorial Hospital",
        "connectionString": "jdbc:as400://S00122/ORDERF122;naming=sql;errors=full",
        "city": "Greenville"
    },
    {
        "facilityId": 547,
        "hospfLib": "HOSPF547",
        "orderfLib": "ORDERF547",
        "division": 3,
        "state": "IL",
        "hostname": "S00186",
        "location": "Gurnee, IL",
        "name": "MRI Institute",
        "connectionString": "jdbc:as400://S00186/ORDERF547;naming=sql;errors=full",
        "city": "Gurnee"
    },
    {
        "facilityId": 6,
        "hospfLib": "HOSPF006",
        "orderfLib": "ORDERF006",
        "division": 1,
        "state": "MS",
        "hostname": "S00006",
        "location": "Hattiesburg, MS",
        "name": "Wesley Medical Center",
        "connectionString": "jdbc:as400://S00006/ORDERF006;naming=sql;errors=full",
        "city": "Hattiesburg"
    },
    {
        "facilityId": 176,
        "hospfLib": "HOSPF176",
        "orderfLib": "ORDERF176",
        "division": 2,
        "state": "AR",
        "hostname": "S00176",
        "location": "Helena, AR",
        "name": "Helena Regional Medical Center",
        "connectionString": "jdbc:as400://S00176/ORDERF176;naming=sql;errors=full",
        "city": "Helena"
    },
    {
        "facilityId": 134,
        "hospfLib": "HOSPF134",
        "orderfLib": "ORDERF134",
        "division": 2,
        "state": "TX",
        "hostname": "S00134",
        "location": "Hillsboro, TX",
        "name": "Hill Regional Hospital",
        "connectionString": "jdbc:as400://S00134/ORDERF134;naming=sql;errors=full",
        "city": "Hillsboro"
    },
    {
        "facilityId": 24,
        "hospfLib": "HOSPF024",
        "orderfLib": "ORDERF024",
        "division": 4,
        "state": "NM",
        "hostname": "S00024",
        "location": "Hobbs, NM",
        "name": "Lea Regional Hospital",
        "connectionString": "jdbc:as400://S00024/ORDERF024;naming=sql;errors=full",
        "city": "Hobbs"
    },
    {
        "facilityId": 37,
        "hospfLib": "HOSPF037",
        "orderfLib": "ORDERF037",
        "division": 1,
        "state": "AL",
        "hostname": "S00037",
        "location": "Huntsville, AL",
        "name": "Crestwood Medical Center",
        "connectionString": "jdbc:as400://S00037/ORDERF037;naming=sql;errors=full",
        "city": "Huntsville"
    },
    {
        "facilityId": 140,
        "hospfLib": "HOSPF140",
        "orderfLib": "ORDERF140",
        "division": 3,
        "state": "KY",
        "hostname": "S00140",
        "location": "Jackson, KY",
        "name": "Kentucky River Medical Center",
        "connectionString": "jdbc:as400://S00140/ORDERF140;naming=sql;errors=full",
        "city": "Jackson"
    },
    {
        "facilityId": 179,
        "hospfLib": "HOSPF179",
        "orderfLib": "ORDERF179",
        "division": 3,
        "state": "TN",
        "hostname": "S00179",
        "location": "Jackson, TN",
        "name": "Jackson-Regional Hosp of Jackson",
        "connectionString": "jdbc:as400://S00179/ORDERF179;naming=sql;errors=full",
        "city": "Jackson"
    },
    {
        "facilityId": 43,
        "hospfLib": "HOSPF043",
        "orderfLib": "ORDERF043",
        "division": 2,
        "state": "AR",
        "hostname": "S00044",
        "location": "Johnson, AR",
        "name": "Willow Creek Women's Hospital",
        "connectionString": "jdbc:as400://S00044/ORDERF043;naming=sql;errors=full",
        "city": "Johnson"
    },
    {
        "facilityId": 171,
        "hospfLib": "HOSPF171",
        "orderfLib": "ORDERF171",
        "division": 2,
        "state": "TX",
        "hostname": "S00171",
        "location": "Jourdanton, TX",
        "name": "South Texas Regional Medical Center",
        "connectionString": "jdbc:as400://S00171/ORDERF171;naming=sql;errors=full",
        "city": "Jourdanton"
    },
    {
        "facilityId": 166,
        "hospfLib": "HOSPF166",
        "orderfLib": "ORDERF166",
        "division": 2,
        "state": "MO",
        "hostname": "S00166",
        "location": "Kirksville, MO",
        "name": "Northeast Regional Medical Center",
        "connectionString": "jdbc:as400://S00166/ORDERF166;naming=sql;errors=full",
        "city": "Kirksville"
    },
    {
        "facilityId": 14,
        "hospfLib": "HOSPF014",
        "orderfLib": "ORDERF014",
        "division": 2,
        "state": "LA",
        "hostname": "S00014",
        "location": "Lake Charles, LA",
        "name": "Lake Area Medical Center",
        "connectionString": "jdbc:as400://S00014/ORDERF014;naming=sql;errors=full",
        "city": "Lake Charles"
    },
    {
        "facilityId": 178,
        "hospfLib": "HOSPF178",
        "orderfLib": "ORDERF178",
        "division": 6,
        "state": "FL",
        "hostname": "S00178",
        "location": "Lake Wales, FL",
        "name": "Lake Wales Medical Center",
        "connectionString": "jdbc:as400://S00178/ORDERF178;naming=sql;errors=full",
        "city": "Lake Wales"
    },
    {
        "facilityId": 189,
        "hospfLib": "HOSPF189",
        "orderfLib": "ORDERF189",
        "division": 2,
        "state": "TX",
        "hostname": "S00189",
        "location": "Laredo, TX",
        "name": "Laredo Medical Center",
        "connectionString": "jdbc:as400://S00189/ORDERF189;naming=sql;errors=full",
        "city": "Laredo"
    },
    {
        "facilityId": 19,
        "hospfLib": "HOSPF019",
        "orderfLib": "ORDERF019",
        "division": 4,
        "state": "NM",
        "hostname": "S00019",
        "location": "Las Cruces, NM",
        "name": "Mountainview Regional Medical Cente",
        "connectionString": "jdbc:as400://S00019/ORDERF019;naming=sql;errors=full",
        "city": "Las Cruces"
    },
    {
        "facilityId": 160,
        "hospfLib": "HOSPF160",
        "orderfLib": "ORDERF160",
        "division": 4,
        "state": "NM",
        "hostname": "S00160",
        "location": "Las Vegas, NM",
        "name": "Alta Vista Regional Hospital",
        "connectionString": "jdbc:as400://S00160/ORDERF160;naming=sql;errors=full",
        "city": "Las Vegas"
    },
    {
        "facilityId": 123,
        "hospfLib": "HOSPF123",
        "orderfLib": "ORDERF123",
        "division": 2,
        "state": "LA",
        "hostname": "S00123",
        "location": "Leesville, LA",
        "name": "Byrd Regional Hospital",
        "connectionString": "jdbc:as400://S00123/ORDERF123;naming=sql;errors=full",
        "city": "Leesville"
    },
    {
        "facilityId": 181,
        "hospfLib": "HOSPF181",
        "orderfLib": "ORDERF181",
        "division": 3,
        "state": "TN",
        "hostname": "S00181",
        "location": "Lexington, TN",
        "name": "Henderson County Community Hospital",
        "connectionString": "jdbc:as400://S00181/ORDERF181;naming=sql;errors=full",
        "city": "Lexington"
    },
    {
        "facilityId": 174,
        "hospfLib": "HOSPF174",
        "orderfLib": "ORDERF174",
        "division": 5,
        "state": "PA",
        "hostname": "S00174",
        "location": "Lockhaven, PA",
        "name": "Lockhaven-Clinton Hospital Corp",
        "connectionString": "jdbc:as400://S00174/ORDERF174;naming=sql;errors=full",
        "city": "Lockhaven"
    },
    {
        "facilityId": 12,
        "hospfLib": "HOSPF012",
        "orderfLib": "ORDERF012",
        "division": 2,
        "state": "TX",
        "hostname": "S00012",
        "location": "Longview, TX",
        "name": "Longview Regional Medical Center",
        "connectionString": "jdbc:as400://S00012/ORDERF012;naming=sql;errors=full",
        "city": "Longview"
    },
    {
        "facilityId": 117,
        "hospfLib": "HOSPF117",
        "orderfLib": "ORDERF117",
        "division": 3,
        "state": "KY",
        "hostname": "S60021",
        "location": "Louisa, KY",
        "name": "Three Rivers Medical Center",
        "connectionString": "jdbc:as400://S60021/ORDERF117;naming=sql;errors=full",
        "city": "Louisa"
    },
    {
        "facilityId": 65,
        "hospfLib": "HOSPF065",
        "orderfLib": "ORDERF065",
        "division": 2,
        "state": "TX",
        "hostname": "S00065",
        "location": "Lufkin, TX",
        "name": "Woodland Heights Medical Center",
        "connectionString": "jdbc:as400://S00065/ORDERF065;naming=sql;errors=full",
        "city": "Lufkin"
    },
    {
        "facilityId": 143,
        "hospfLib": "HOSPF143",
        "orderfLib": "ORDERF143",
        "division": 3,
        "state": "IL",
        "hostname": "S00143",
        "location": "Marion, IL",
        "name": "Heartland Regional Medical Center",
        "connectionString": "jdbc:as400://S00143/ORDERF143;naming=sql;errors=full",
        "city": "Marion"
    },
    {
        "facilityId": 184,
        "hospfLib": "HOSPF184",
        "orderfLib": "ORDERF184",
        "division": 3,
        "state": "TN",
        "hostname": "S00184",
        "location": "Martin, TN",
        "name": "Volunteer Community Hospital",
        "connectionString": "jdbc:as400://S00184/ORDERF184;naming=sql;errors=full",
        "city": "Martin"
    },
    {
        "facilityId": 57,
        "hospfLib": "HOSPF057",
        "orderfLib": "ORDERF057",
        "division": 5,
        "state": "OH",
        "hostname": "S00057",
        "location": "Massillon, OH",
        "name": "Affinity Medical Center",
        "connectionString": "jdbc:as400://S00057/ORDERF057;naming=sql;errors=full",
        "city": "Massillon"
    },
    {
        "facilityId": 182,
        "hospfLib": "HOSPF182",
        "orderfLib": "ORDERF182",
        "division": 3,
        "state": "TN",
        "hostname": "S00182",
        "location": "McKenzie, TN",
        "name": "McKenzie Regional Hospital",
        "connectionString": "jdbc:as400://S00182/ORDERF182;naming=sql;errors=full",
        "city": "McKenzie"
    },
    {
        "facilityId": 29,
        "hospfLib": "HOSPF029",
        "orderfLib": "ORDERF029",
        "division": 4,
        "state": "NV",
        "hostname": "S00029",
        "location": "Mesquite, NV",
        "name": "Mesa View Regional Hospital",
        "connectionString": "jdbc:as400://S00029/ORDERF029;naming=sql;errors=full",
        "city": "Mesquite"
    },
    {
        "facilityId": 118,
        "hospfLib": "HOSPF118",
        "orderfLib": "ORDERF118",
        "division": 2,
        "state": "MO",
        "hostname": "MRMC",
        "location": "Moberly, MO",
        "name": "Moberly Regional Medical Center",
        "connectionString": "jdbc:as400://MRMC/ORDERF118;naming=sql;errors=full",
        "city": "Moberly"
    },
    {
        "facilityId": 116,
        "hospfLib": "HOSPF116",
        "orderfLib": "ORDERF116",
        "division": 3,
        "state": "TN",
        "hostname": "S60022",
        "location": "Morristown, TN",
        "name": "Lakeway Regional Hospital",
        "connectionString": "jdbc:as400://S60022/ORDERF116;naming=sql;errors=full",
        "city": "Morristown"
    },
    {
        "facilityId": 133,
        "hospfLib": "HOSPF133",
        "orderfLib": "ORDERF133",
        "division": 3,
        "state": "IL",
        "hostname": "S00133",
        "location": "Mt. Vernon, IL",
        "name": "Crossroads Community Hospital",
        "connectionString": "jdbc:as400://S00133/ORDERF133;naming=sql;errors=full",
        "city": "Mt. Vernon"
    },
    {
        "facilityId": 73,
        "hospfLib": "HOSPF073",
        "orderfLib": "ORDERF073",
        "division": 6,
        "state": "SC",
        "hostname": "S00073",
        "location": "Mullins, SC",
        "name": "Marion Regional Healthcare System",
        "connectionString": "jdbc:as400://S00073/ORDERF073;naming=sql;errors=full",
        "city": "Mullins"
    },
    {
        "facilityId": 86,
        "hospfLib": "HOSPF086",
        "orderfLib": "ORDERF086",
        "division": 5,
        "state": "PA",
        "hostname": "S60001",
        "location": "Nanticoke, PA",
        "name": "Nanticoke Hospital",
        "connectionString": "jdbc:as400://S60001/ORDERF086;naming=sql;errors=full",
        "city": "Nanticoke"
    },
    {
        "facilityId": 128,
        "hospfLib": "HOSPF128",
        "orderfLib": "ORDERF128",
        "division": 2,
        "state": "AR",
        "hostname": "S00128",
        "location": "Newport, AR",
        "name": "Harris Hospital",
        "connectionString": "jdbc:as400://S00128/ORDERF128;naming=sql;errors=full",
        "city": "Newport"
    },
    {
        "facilityId": 175,
        "hospfLib": "HOSPF175",
        "orderfLib": "ORDERF175",
        "division": 3,
        "state": "WV",
        "hostname": "S00175",
        "location": "Oak Hill, WV",
        "name": "Plateau Medical Center",
        "connectionString": "jdbc:as400://S00175/ORDERF175;naming=sql;errors=full",
        "city": "Oak Hill"
    },
    {
        "facilityId": 68,
        "hospfLib": "HOSPF068",
        "orderfLib": "ORDERF068",
        "division": 4,
        "state": "OK",
        "hostname": "S00068",
        "location": "Oklahoma City, OK",
        "name": "Deaconess Hospital",
        "connectionString": "jdbc:as400://S00068/ORDERF068;naming=sql;errors=full",
        "city": "Oklahoma City"
    },
    {
        "facilityId": 17,
        "hospfLib": "HOSPF017",
        "orderfLib": "ORDERF017",
        "division": 4,
        "state": "AZ",
        "hostname": "S00004",
        "location": "Oro Valley, AZ",
        "name": "Northwest Med Ctr of Oro Valley",
        "connectionString": "jdbc:as400://S00004/ORDERF017;naming=sql;errors=full",
        "city": "Oro Valley"
    },
    {
        "facilityId": 63,
        "hospfLib": "HOSPF063",
        "orderfLib": "ORDERF063",
        "division": 4,
        "state": "AK",
        "hostname": "S00063",
        "location": "Palmer, AK",
        "name": "Mat-Su Regional Medical Center",
        "connectionString": "jdbc:as400://S00063/ORDERF063;naming=sql;errors=full",
        "city": "Palmer"
    },
    {
        "facilityId": 150,
        "hospfLib": "HOSPF150",
        "orderfLib": "ORDERF150",
        "division": 4,
        "state": "AZ",
        "hostname": "S00150",
        "location": "Payson, AZ",
        "name": "Payson Regional Medical Center",
        "connectionString": "jdbc:as400://S00150/ORDERF150;naming=sql;errors=full",
        "city": "Payson"
    },
    {
        "facilityId": 46,
        "hospfLib": "HOSPF046",
        "orderfLib": "ORDERF046",
        "division": 5,
        "state": "IN",
        "hostname": "S60002",
        "location": "Peru, IN",
        "name": "Dukes Memorial Hospital",
        "connectionString": "jdbc:as400://S60002/ORDERF046;naming=sql;errors=full",
        "city": "Peru"
    },
    {
        "facilityId": 188,
        "hospfLib": "HOSPF188",
        "orderfLib": "ORDERF188",
        "division": 1,
        "state": "VA",
        "hostname": "S00188",
        "location": "Petersburg, VA",
        "name": "Southside Regional Medical Center",
        "connectionString": "jdbc:as400://S00188/ORDERF188;naming=sql;errors=full",
        "city": "Petersburg"
    },
    {
        "facilityId": 177,
        "hospfLib": "HOSPF177",
        "orderfLib": "ORDERF177",
        "division": 5,
        "state": "PA",
        "hostname": "S00177",
        "location": "Phoenixville, PA",
        "name": "Phoenixville Hospital",
        "connectionString": "jdbc:as400://S00177/ORDERF177;naming=sql;errors=full",
        "city": "Phoenixville"
    },
    {
        "facilityId": 187,
        "hospfLib": "HOSPF187",
        "orderfLib": "ORDERF187",
        "division": 5,
        "state": "PA",
        "hostname": "S00187",
        "location": "Pottstown, PA",
        "name": "Pottstown Memorial Medical Center",
        "connectionString": "jdbc:as400://S00187/ORDERF187;naming=sql;errors=full",
        "city": "Pottstown"
    },
    {
        "facilityId": 168,
        "hospfLib": "HOSPF168",
        "orderfLib": "ORDERF168",
        "division": 3,
        "state": "IL",
        "hostname": "S00168",
        "location": "Red Bud, IL",
        "name": "Red Bud Regional Hospital",
        "connectionString": "jdbc:as400://S00168/ORDERF168;naming=sql;errors=full",
        "city": "Red Bud"
    },
    {
        "facilityId": 21,
        "hospfLib": "HOSPF021",
        "orderfLib": "ORDERF021",
        "division": 3,
        "state": "WV",
        "hostname": "S00021",
        "location": "Ronceverte, WV",
        "name": "Greenbrier Valley Medical Center",
        "connectionString": "jdbc:as400://S00021/ORDERF021;naming=sql;errors=full",
        "city": "Ronceverte"
    },
    {
        "facilityId": 126,
        "hospfLib": "HOSPF126",
        "orderfLib": "ORDERF126",
        "division": 2,
        "state": "LA",
        "hostname": "S00126",
        "location": "Ruston, LA",
        "name": "Northern Louisiana Medical Center",
        "connectionString": "jdbc:as400://S00126/ORDERF126;naming=sql;errors=full",
        "city": "Ruston"
    },
    {
        "facilityId": 173,
        "hospfLib": "HOSPF173",
        "orderfLib": "ORDERF173",
        "division": 5,
        "state": "NJ",
        "hostname": "S00173",
        "location": "Salem, NJ",
        "name": "Salem-Memorial Hospital of Salem Co",
        "connectionString": "jdbc:as400://S00173/ORDERF173;naming=sql;errors=full",
        "city": "Salem"
    },
    {
        "facilityId": 66,
        "hospfLib": "HOSPF066",
        "orderfLib": "ORDERF066",
        "division": 2,
        "state": "TX",
        "hostname": "S00066",
        "location": "San Angelo, TX",
        "name": "San Angelo Community Medical Center",
        "connectionString": "jdbc:as400://S00066/ORDERF066;naming=sql;errors=full",
        "city": "San Angelo"
    },
    {
        "facilityId": 79,
        "hospfLib": "HOSPF079",
        "orderfLib": "ORDERF079",
        "division": 5,
        "state": "PA",
        "hostname": "S00079",
        "location": "Scranton, PA",
        "name": "Scranton Hospital",
        "connectionString": "jdbc:as400://S00079/ORDERF079;naming=sql;errors=full",
        "city": "Scranton"
    },
    {
        "facilityId": 89,
        "hospfLib": "HOSPF089",
        "orderfLib": "ORDERF089",
        "division": 5,
        "state": "PA",
        "hostname": "S00089",
        "location": "Scranton, PA",
        "name": "Moses Taylor Hospital",
        "connectionString": "jdbc:as400://S00089/ORDERF089;naming=sql;errors=full",
        "city": "Scranton"
    },
    {
        "facilityId": 183,
        "hospfLib": "HOSPF183",
        "orderfLib": "ORDERF183",
        "division": 3,
        "state": "TN",
        "hostname": "S00183",
        "location": "Selmer, TN",
        "name": "McNairy Regional Hospital",
        "connectionString": "jdbc:as400://S00183/ORDERF183;naming=sql;errors=full",
        "city": "Selmer"
    },
    {
        "facilityId": 192,
        "hospfLib": "HOSPF192",
        "orderfLib": "ORDERF192",
        "division": 3,
        "state": "TN",
        "hostname": "S61000",
        "location": "Shelbyville, TN",
        "name": "Heritage Medical Center",
        "connectionString": "jdbc:as400://S61000/ORDERF192;naming=sql;errors=full",
        "city": "Shelbyville"
    },
    {
        "facilityId": 832,
        "hospfLib": "HOSPF832",
        "orderfLib": "ORDERF832",
        "division": 2,
        "state": "AR",
        "hostname": "S00832",
        "location": "Siloam Springs, AR",
        "name": "Siloam Springs Regional Hospital",
        "connectionString": "jdbc:as400://S00832/ORDERF832;naming=sql;errors=full",
        "city": "Siloam Springs"
    },
    {
        "facilityId": 13,
        "hospfLib": "HOSPF013",
        "orderfLib": "ORDERF013",
        "division": 6,
        "state": "SC",
        "hostname": "S00013",
        "location": "Spartanburg, SC",
        "name": "Mary Black Health System",
        "connectionString": "jdbc:as400://S00013/ORDERF013;naming=sql;errors=full",
        "city": "Spartanburg"
    },
    {
        "facilityId": 44,
        "hospfLib": "HOSPF044",
        "orderfLib": "ORDERF044",
        "division": 2,
        "state": "AR",
        "hostname": "S00044",
        "location": "Springdale, AR",
        "name": "Northwest Medical Center Springdale",
        "connectionString": "jdbc:as400://S00044/ORDERF044;naming=sql;errors=full",
        "city": "Springdale"
    },
    {
        "facilityId": 62,
        "hospfLib": "HOSPF062",
        "orderfLib": "ORDERF062",
        "division": 4,
        "state": "OR",
        "hostname": "S00062",
        "location": "Springfield, OR",
        "name": "McKenzie-Willamette Medical Center",
        "connectionString": "jdbc:as400://S00062/ORDERF062;naming=sql;errors=full",
        "city": "Springfield"
    },
    {
        "facilityId": 194,
        "hospfLib": "HOSPF194",
        "orderfLib": "ORDERF194",
        "division": 5,
        "state": "PA",
        "hostname": "SCHHMS",
        "location": "Sunbury, PA",
        "name": "Sunbury Community Hospital",
        "connectionString": "jdbc:as400://SCHHMS/ORDERF194;naming=sql;errors=full",
        "city": "Sunbury"
    },
    {
        "facilityId": 87,
        "hospfLib": "HOSPF087",
        "orderfLib": "ORDERF087",
        "division": 2,
        "state": "TX",
        "hostname": "S00087",
        "location": "Tomball, TX",
        "name": "Tomball Regional Medical Center",
        "connectionString": "jdbc:as400://S00087/ORDERF087;naming=sql;errors=full",
        "city": "Tomball"
    },
    {
        "facilityId": 165,
        "hospfLib": "HOSPF165",
        "orderfLib": "ORDERF165",
        "division": 4,
        "state": "UT",
        "hostname": "S00706",
        "location": "Tooele, UT",
        "name": "Tooele-Mountain West Medical Center",
        "connectionString": "jdbc:as400://S00706/ORDERF165;naming=sql;errors=full",
        "city": "Tooele"
    },
    {
        "facilityId": 4,
        "hospfLib": "HOSPF004",
        "orderfLib": "ORDERF004",
        "division": 4,
        "state": "AZ",
        "hostname": "S00004",
        "location": "Tucson, AZ",
        "name": "Northwest Medical Center",
        "connectionString": "jdbc:as400://S00004/ORDERF004;naming=sql;errors=full",
        "city": "Tucson"
    },
    {
        "facilityId": 2,
        "hospfLib": "HOSPF002",
        "orderfLib": "ORDERF002",
        "division": 4,
        "state": "OK",
        "hostname": "S00002",
        "location": "Tulsa, OK",
        "name": "SouthCrest Hospital",
        "connectionString": "jdbc:as400://S00002/ORDERF002;naming=sql;errors=full",
        "city": "Tulsa"
    },
    {
        "facilityId": 85,
        "hospfLib": "HOSPF085",
        "orderfLib": "ORDERF085",
        "division": 5,
        "state": "PA",
        "hostname": "S00085",
        "location": "Tunkhannock, PA",
        "name": "Tyler Hospital",
        "connectionString": "jdbc:as400://S00085/ORDERF085;naming=sql;errors=full",
        "city": "Tunkhannock"
    },
    {
        "facilityId": 137,
        "hospfLib": "HOSPF137",
        "orderfLib": "ORDERF137",
        "division": 5,
        "state": "IN",
        "hostname": "S00137",
        "location": "Valparaiso, IN",
        "name": "Porter Hospital",
        "connectionString": "jdbc:as400://S00137/ORDERF137;naming=sql;errors=full",
        "city": "Valparaiso"
    },
    {
        "facilityId": 23,
        "hospfLib": "HOSPF023",
        "orderfLib": "ORDERF023",
        "division": 1,
        "state": "MS",
        "hostname": "S00023",
        "location": "Vicksburg, MS",
        "name": "River Region Health System",
        "connectionString": "jdbc:as400://S00023/ORDERF023;naming=sql;errors=full",
        "city": "Vicksburg"
    },
    {
        "facilityId": 49,
        "hospfLib": "HOSPF049",
        "orderfLib": "ORDERF049",
        "division": 2,
        "state": "TX",
        "hostname": "S00049",
        "location": "Victoria, TX",
        "name": "Detar Hospital",
        "connectionString": "jdbc:as400://S00049/ORDERF049;naming=sql;errors=full",
        "city": "Victoria"
    },
    {
        "facilityId": 77,
        "hospfLib": "HOSPF077",
        "orderfLib": "ORDERF077",
        "division": 5,
        "state": "OH",
        "hostname": "S00076",
        "location": "Warren, OH",
        "name": "Trumbull Memorial Hospital",
        "connectionString": "jdbc:as400://S00076/ORDERF077;naming=sql;errors=full",
        "city": "Warren"
    },
    {
        "facilityId": 78,
        "hospfLib": "HOSPF078",
        "orderfLib": "ORDERF078",
        "division": 5,
        "state": "OH",
        "hostname": "S00076",
        "location": "Warren, OH",
        "name": "Hillside Rehabilitation Hospital",
        "connectionString": "jdbc:as400://S00076/ORDERF078;naming=sql;errors=full",
        "city": "Warren"
    },
    {
        "facilityId": 52,
        "hospfLib": "HOSPF052",
        "orderfLib": "ORDERF052",
        "division": 5,
        "state": "IN",
        "hostname": "S60002",
        "location": "Warsaw, IN",
        "name": "Kosciusko Community Hospital",
        "connectionString": "jdbc:as400://S60002/ORDERF052;naming=sql;errors=full",
        "city": "Warsaw"
    },
    {
        "facilityId": 152,
        "hospfLib": "HOSPF152",
        "orderfLib": "ORDERF152",
        "division": 4,
        "state": "CA",
        "hostname": "S00152",
        "location": "Watsonville, CA",
        "name": "Watsonville Community Hospital",
        "connectionString": "jdbc:as400://S00152/ORDERF152;naming=sql;errors=full",
        "city": "Watsonville"
    },
    {
        "facilityId": 186,
        "hospfLib": "HOSPF186",
        "orderfLib": "ORDERF186",
        "division": 3,
        "state": "IL",
        "hostname": "S00186",
        "location": "Waukegan, IL",
        "name": "Vista Medical Center East",
        "connectionString": "jdbc:as400://S00186/ORDERF186;naming=sql;errors=full",
        "city": "Waukegan"
    },
    {
        "facilityId": 586,
        "hospfLib": "HOSPF586",
        "orderfLib": "ORDERF586",
        "division": 3,
        "state": "IL",
        "hostname": "S00186",
        "location": "Waukegan, IL",
        "name": "Vista Medical Center West",
        "connectionString": "jdbc:as400://S00186/ORDERF586;naming=sql;errors=full",
        "city": "Waukegan"
    },
    {
        "facilityId": 170,
        "hospfLib": "HOSPF170",
        "orderfLib": "ORDERF170",
        "division": 5,
        "state": "PA",
        "hostname": "S00170",
        "location": "West Grove, PA",
        "name": "Jennersville Regional Hospital",
        "connectionString": "jdbc:as400://S00170/ORDERF170;naming=sql;errors=full",
        "city": "West Grove"
    },
    {
        "facilityId": 560,
        "hospfLib": "HOSPF560",
        "orderfLib": "ORDERF560",
        "division": 2,
        "state": "TX",
        "hostname": "S60000",
        "location": "Wichita Falls, TX",
        "name": "North Texas Home Health",
        "connectionString": "jdbc:as400://S60000/ORDERF560;naming=sql;errors=full",
        "city": "Wichita Falls"
    },
    {
        "facilityId": 574,
        "hospfLib": "HOSPF574",
        "orderfLib": "ORDERF574",
        "division": 2,
        "state": "TX",
        "hostname": "S60000",
        "location": "Wichita Falls, TX",
        "name": "Carepartners",
        "connectionString": "jdbc:as400://S60000/ORDERF574;naming=sql;errors=full",
        "city": "Wichita Falls"
    },
    {
        "facilityId": 849,
        "hospfLib": "HOSPF849",
        "orderfLib": "ORDERF849",
        "division": 5,
        "state": "PA",
        "hostname": "S00849",
        "location": "Wilkes Barre, PA",
        "name": "Wilkes-Barre Hospital Company",
        "connectionString": "jdbc:as400://S00849/ORDERF849;naming=sql;errors=full",
        "city": "Wilkes Barre"
    },
    {
        "facilityId": 154,
        "hospfLib": "HOSPF154",
        "orderfLib": "ORDERF154",
        "division": 1,
        "state": "NC",
        "hostname": "S00154",
        "location": "Williamston, NC",
        "name": "Martin General Hospital",
        "connectionString": "jdbc:as400://S00154/ORDERF154;naming=sql;errors=full",
        "city": "Williamston"
    },
    {
        "facilityId": 5,
        "hospfLib": "HOSPF005",
        "orderfLib": "ORDERF005",
        "division": 4,
        "state": "OK",
        "hostname": "S00005",
        "location": "WOODWARD, OK",
        "name": "Woodward Regional Hospital",
        "connectionString": "jdbc:as400://S00005/ORDERF005;naming=sql;errors=full",
        "city": "WOODWARD"
    },
    {
        "facilityId": 93,
        "hospfLib": "HOSPF093",
        "orderfLib": "ORDERF093",
        "division": 5,
        "state": "PA",
        "hostname": "S00093",
        "location": "York, PA",
        "name": "Memorial Hospital",
        "connectionString": "jdbc:as400://S00093/ORDERF093;naming=sql;errors=full",
        "city": "York"
    },
    {
        "facilityId": 76,
        "hospfLib": "HOSPF076",
        "orderfLib": "ORDERF076",
        "division": 5,
        "state": "OH",
        "hostname": "S00076",
        "location": "Youngstown, OH",
        "name": "Northside Medical Center",
        "connectionString": "jdbc:as400://S00076/ORDERF076;naming=sql;errors=full",
        "city": "Youngstown"
    }
]